{"type":"FeatureCollection","features":[{"type":"Feature","properties":{"2000":17.74,"2004":16.78,"2008":21.95,"2012":24.67,"2016":31.31,"2020":8.22,"2024":34.77,"Airport":"JFK"},"geometry":{"type":"Point","coordinates":[-73.7797,40.6446]}},{"type":"Feature","properties":{"2000":16.71,"2004":15.79,"2008":16.15,"2012":16.84,"2016":22.18,"2020":6.25,"2024":23.44,"Airport":"LAX"},"geometry":{"type":"Point","coordinates":[-118.4036,33.9422]}},{"type":"Feature","properties":{"2000":15.76,"2004":13.99,"2008":15.67,"2012":18.53,"2016":19.69,"2020":6.57,"2024":23.2,"Airport":"MIA"},"geometry":{"type":"Point","coordinates":[-80.2823,25.7923]}},{"type":"Feature","properties":{"2000":7.61,"2004":7.29,"2008":8.35,"2012":9.15,"2016":11.84,"2020":3.21,"2024":15.08,"Airport":"SFO "},"geometry":{"type":"Point","coordinates":[-122.3816,37.6191]}},{"type":"Feature","properties":{"2000":8.66,"2004":8.59,"2008":10.92,"2012":11.15,"2016":11.76,"2020":3.69,"2024":14.69,"Airport":"EWR"},"geometry":{"type":"Point","coordinates":[-74.1769,40.6885]}},{"type":"Feature","properties":{"2000":9.72,"2004":9.86,"2008":11.02,"2012":10.2,"2016":11.92,"2020":3.48,"2024":13.87,"Airport":"ORD"},"geometry":{"type":"Point","coordinates":[-87.909,41.9803]}},{"type":"Feature","properties":{"2000":5.9,"2004":6.63,"2008":9.22,"2012":9.56,"2016":11.19,"2020":3.35,"2024":13.81,"Airport":"ATL"},"geometry":{"type":"Point","coordinates":[-84.4333,33.6324]}},{"type":"Feature","properties":{"2000":4.46,"2004":4.31,"2008":4.83,"2012":5.81,"2016":7.82,"2020":3.27,"2024":11.84,"Airport":"DFW"},"geometry":{"type":"Point","coordinates":[-97.0391,32.8922]}},{"type":"Feature","properties":{"2000":5.29,"2004":6.08,"2008":7.58,"2012":8.51,"2016":10.53,"2020":3.49,"2024":11.68,"Airport":"IAH"},"geometry":{"type":"Point","coordinates":[-95.3416,29.9931]}},{"type":"Feature","properties":{"2000":3.86,"2004":4.5,"2008":5.98,"2012":6.5,"2016":7.12,"2020":1.92,"2024":10.06,"Airport":"IAD"},"geometry":{"type":"Point","coordinates":[-77.4579,38.9522]}},{"type":"Feature","properties":{"2000":3.49,"2004":3.58,"2008":3.42,"2012":4.03,"2016":5.84,"2020":1.57,"2024":8.49,"Airport":"BOS"},"geometry":{"type":"Point","coordinates":[-71.0096,42.3656]}},{"type":"Feature","properties":{"2000":1.89,"2004":1.89,"2008":2.51,"2012":3.61,"2016":5.42,"2020":1.53,"2024":7.61,"Airport":"MCO"},"geometry":{"type":"Point","coordinates":[-81.3105,28.4244]}},{"type":"Feature","properties":{"2000":1.15,"2004":1.5,"2008":3.03,"2012":3.4,"2016":5.64,"2020":2.84,"2024":6.9,"Airport":"FLL"},"geometry":{"type":"Point","coordinates":[-80.1512,26.0732]}},{"type":"Feature","properties":{"2000":2.2,"2004":2.25,"2008":2.79,"2012":3.04,"2016":4.63,"2020":1.27,"2024":6.06,"Airport":"SEA"},"geometry":{"type":"Point","coordinates":[-122.3086,47.4484]}},{"type":"Feature","properties":{"2000":0.9,"2004":1.78,"2008":2.29,"2012":2.97,"2016":2.97,"2020":1.07,"2024":4.62,"Airport":"CLT"},"geometry":{"type":"Point","coordinates":[-80.9539,35.2163]}},{"type":"Feature","properties":{"2000":17.74,"2004":16.78,"2008":21.95,"2012":24.67,"2016":31.31,"2020":8.22,"2024":34.77,"Airport":"JFK"},"geometry":{"type":"Point","coordinates":[-73.7797,40.6446]}},{"type":"Feature","properties":{"2000":16.71,"2004":15.79,"2008":16.15,"2012":16.84,"2016":22.18,"2020":6.25,"2024":23.44,"Airport":"LAX"},"geometry":{"type":"Point","coordinates":[-118.4036,33.9422]}},{"type":"Feature","properties":{"2000":15.76,"2004":13.99,"2008":15.67,"2012":18.53,"2016":19.69,"2020":6.57,"2024":23.2,"Airport":"MIA"},"geometry":{"type":"Point","coordinates":[-80.2823,25.7923]}},{"type":"Feature","properties":{"2000":7.61,"2004":7.29,"2008":8.35,"2012":9.15,"2016":11.84,"2020":3.21,"2024":15.08,"Airport":"SFO "},"geometry":{"type":"Point","coordinates":[-122.3816,37.6191]}},{"type":"Feature","properties":{"2000":8.66,"2004":8.59,"2008":10.92,"2012":11.15,"2016":11.76,"2020":3.69,"2024":14.69,"Airport":"EWR"},"geometry":{"type":"Point","coordinates":[-74.1769,40.6885]}},{"type":"Feature","properties":{"2000":9.72,"2004":9.86,"2008":11.02,"2012":10.2,"2016":11.92,"2020":3.48,"2024":13.87,"Airport":"ORD"},"geometry":{"type":"Point","coordinates":[-87.909,41.9803]}},{"type":"Feature","properties":{"2000":5.9,"2004":6.63,"2008":9.22,"2012":9.56,"2016":11.19,"2020":3.35,"2024":13.81,"Airport":"ATL"},"geometry":{"type":"Point","coordinates":[-84.4333,33.6324]}},{"type":"Feature","properties":{"2000":4.46,"2004":4.31,"2008":4.83,"2012":5.81,"2016":7.82,"2020":3.27,"2024":11.84,"Airport":"DFW"},"geometry":{"type":"Point","coordinates":[-97.0391,32.8922]}},{"type":"Feature","properties":{"2000":5.29,"2004":6.08,"2008":7.58,"2012":8.51,"2016":10.53,"2020":3.49,"2024":11.68,"Airport":"IAH"},"geometry":{"type":"Point","coordinates":[-95.3416,29.9931]}},{"type":"Feature","properties":{"2000":3.86,"2004":4.5,"2008":5.98,"2012":6.5,"2016":7.12,"2020":1.92,"2024":10.06,"Airport":"IAD"},"geometry":{"type":"Point","coordinates":[-77.4579,38.9522]}},{"type":"Feature","properties":{"2000":3.49,"2004":3.58,"2008":3.42,"2012":4.03,"2016":5.84,"2020":1.57,"2024":8.49,"Airport":"BOS"},"geometry":{"type":"Point","coordinates":[-71.0096,42.3656]}},{"type":"Feature","properties":{"2000":1.89,"2004":1.89,"2008":2.51,"2012":3.61,"2016":5.42,"2020":1.53,"2024":7.61,"Airport":"MCO"},"geometry":{"type":"Point","coordinates":[-81.3105,28.4244]}},{"type":"Feature","properties":{"2000":1.15,"2004":1.5,"2008":3.03,"2012":3.4,"2016":5.64,"2020":2.84,"2024":6.9,"Airport":"FLL"},"geometry":{"type":"Point","coordinates":[-80.1512,26.0732]}},{"type":"Feature","properties":{"2000":2.2,"2004":2.25,"2008":2.79,"2012":3.04,"2016":4.63,"2020":1.27,"2024":6.06,"Airport":"SEA"},"geometry":{"type":"Point","coordinates":[-122.3086,47.4484]}},{"type":"Feature","properties":{"2000":0.9,"2004":1.78,"2008":2.29,"2012":2.97,"2016":2.97,"2020":1.07,"2024":4.62,"Airport":"CLT"},"geometry":{"type":"Point","coordinates":[-80.9539,35.2163]}},{"type":"Feature","properties":{"2000":17.74,"2004":16.78,"2008":21.95,"2012":24.67,"2016":31.31,"2020":8.22,"2024":34.77,"Airport":"JFK"},"geometry":{"type":"Point","coordinates":[-73.7797,40.6446]}},{"type":"Feature","properties":{"2000":16.71,"2004":15.79,"2008":16.15,"2012":16.84,"2016":22.18,"2020":6.25,"2024":23.44,"Airport":"LAX"},"geometry":{"type":"Point","coordinates":[-118.4036,33.9422]}},{"type":"Feature","properties":{"2000":15.76,"2004":13.99,"2008":15.67,"2012":18.53,"2016":19.69,"2020":6.57,"2024":23.2,"Airport":"MIA"},"geometry":{"type":"Point","coordinates":[-80.2823,25.7923]}},{"type":"Feature","properties":{"2000":7.61,"2004":7.29,"2008":8.35,"2012":9.15,"2016":11.84,"2020":3.21,"2024":15.08,"Airport":"SFO "},"geometry":{"type":"Point","coordinates":[-122.3816,37.6191]}},{"type":"Feature","properties":{"2000":8.66,"2004":8.59,"2008":10.92,"2012":11.15,"2016":11.76,"2020":3.69,"2024":14.69,"Airport":"EWR"},"geometry":{"type":"Point","coordinates":[-74.1769,40.6885]}},{"type":"Feature","properties":{"2000":9.72,"2004":9.86,"2008":11.02,"2012":10.2,"2016":11.92,"2020":3.48,"2024":13.87,"Airport":"ORD"},"geometry":{"type":"Point","coordinates":[-87.909,41.9803]}},{"type":"Feature","properties":{"2000":5.9,"2004":6.63,"2008":9.22,"2012":9.56,"2016":11.19,"2020":3.35,"2024":13.81,"Airport":"ATL"},"geometry":{"type":"Point","coordinates":[-84.4333,33.6324]}},{"type":"Feature","properties":{"2000":4.46,"2004":4.31,"2008":4.83,"2012":5.81,"2016":7.82,"2020":3.27,"2024":11.84,"Airport":"DFW"},"geometry":{"type":"Point","coordinates":[-97.0391,32.8922]}},{"type":"Feature","properties":{"2000":5.29,"2004":6.08,"2008":7.58,"2012":8.51,"2016":10.53,"2020":3.49,"2024":11.68,"Airport":"IAH"},"geometry":{"type":"Point","coordinates":[-95.3416,29.9931]}},{"type":"Feature","properties":{"2000":3.86,"2004":4.5,"2008":5.98,"2012":6.5,"2016":7.12,"2020":1.92,"2024":10.06,"Airport":"IAD"},"geometry":{"type":"Point","coordinates":[-77.4579,38.9522]}},{"type":"Feature","properties":{"2000":3.49,"2004":3.58,"2008":3.42,"2012":4.03,"2016":5.84,"2020":1.57,"2024":8.49,"Airport":"BOS"},"geometry":{"type":"Point","coordinates":[-71.0096,42.3656]}},{"type":"Feature","properties":{"2000":1.89,"2004":1.89,"2008":2.51,"2012":3.61,"2016":5.42,"2020":1.53,"2024":7.61,"Airport":"MCO"},"geometry":{"type":"Point","coordinates":[-81.3105,28.4244]}},{"type":"Feature","properties":{"2000":1.15,"2004":1.5,"2008":3.03,"2012":3.4,"2016":5.64,"2020":2.84,"2024":6.9,"Airport":"FLL"},"geometry":{"type":"Point","coordinates":[-80.1512,26.0732]}},{"type":"Feature","properties":{"2000":2.2,"2004":2.25,"2008":2.79,"2012":3.04,"2016":4.63,"2020":1.27,"2024":6.06,"Airport":"SEA"},"geometry":{"type":"Point","coordinates":[-122.3086,47.4484]}},{"type":"Feature","properties":{"2000":0.9,"2004":1.78,"2008":2.29,"2012":2.97,"2016":2.97,"2020":1.07,"2024":4.62,"Airport":"CLT"},"geometry":{"type":"Point","coordinates":[-80.9539,35.2163]}}]}